[{"lat": 46.310057539455677, "lng": -79.461467839355521, "location": "North Bay, ON, Canada", "id": 5171359936151552, "title": "The Wonderful Journey has begun! Thank you, Radio Konton!"}, {"lat": 42.342610513822713, "lng": -83.071829919433583, "location": "Detroit, MI, United States", "id": 5654609792073728, "title": "Quick stop in Detroit, grab the journal book, and off to Hiroshima!"}, {"lat": 34.399077930264802, "lng": 132.45529448547359, "location": "Hiroshima-shi, Hiroshima-ken, Japan", "id": 5640628599783424, "title": "Happy birthday, SU-METAL! We are very happy to be here!"}, {"lat": 49.41383709410448, "lng": 14.66803824462886, "location": "Tabor, South Bohemian Region, Czechia", "id": 5682238511382528, "title": "Hello, Europe! We are sooo happy to be here!!"}, {"lat": 53.015161709006001, "lng": 13.999264856762693, "location": "Angerm\u00fcnde, BB, Germany", "id": 5756901417549824, "title": "Our second country in Europe, new adventures await us!"}, {"lat": 59.435310619656704, "lng": 24.763035706542951, "location": "Tallinn, Harju County, Estonia", "id": 5685807763423232, "title": "Estonia and Finland, here we are! These will be the northernmost cities we will reach in our journey :)"}, {"lat": 48.759972412136662, "lng": 16.880439176855475, "location": "Breclav, South Moravian Region, Czechia", "id": 5642398931615744, "title": "Back to Czech Republic to visit B\u0159eclav. Snowy days... but lots of friends!"}, {"lat": 47.490576343203948, "lng": 19.044711560272617, "location": "Budapest, Budapest, Hungary", "id": 5675684525506560, "title": "After a pleasant train ride, we arrived in Budapest!"}, {"lat": 43.708138027348419, "lng": 7.268432916705251, "location": "Nice, Provence-Alpes-C\u00f4te d'Azur, France", "id": 5658702627471360, "title": "Bonjour, France! YuiPop loves the juicy tomatoes found in this city"}]